[
  {"centre_name": "Greater Kailash", "address": "M-2, Main Road, LGF, Greater Kailash Part-1, Near SCI Hospital, New Delhi-110048", "lat": 28.5375, "lng": 77.2402},
  {"centre_name": "Janakpuri", "address": "B-50, New Krishna Park, Dhauli Pyau Red Light Crossing, Service Lane, Near Raymond, Janakpuri, New Delhi-110018", "lat": 28.6219, "lng": 77.0878},
  {"centre_name": "Mayur Vihar Phase 1", "address": "Shop No. 4, Pocket 1, DDA Market, Near BSES Office, Mayur Vihar Phase 1, New Delhi-110091", "lat": 28.6115, "lng": 77.2964},
  {"centre_name": "Old Rajendra Nagar", "address": "6/88 Old Rajendra Nagar, Near Main Shankar Road, Karol Bagh, New Delhi-110060", "lat": 28.6453, "lng": 77.1843},
  {"centre_name": "Sector 22", "address": "H-15, Sector-22, Noida-201301", "lat": 28.5722, "lng": 77.3226},
  {"centre_name": "Sector 3", "address": "2nd Floor, G 43, Block G, Noida Sector 3, Noida, Uttar Pradesh 201301", "lat": 28.5830, "lng": 77.3131},
  {"centre_name": "Greater Noida", "address": "Shop No. GF-36, K.B. Complex, Plot No. I.S.-01, Sector Alpha-02, Greater Noida, U.P.-201308", "lat": 28.4744, "lng": 77.5040},
  {"centre_name": "Raj Nagar", "address": "Shop No. 3, IGF B 1, RDC, Raj Nagar, Ghaziabad, UP-201017", "lat": 28.6751, "lng": 77.4136},
  {"centre_name": "M.G. Road", "address": "S-056, Sahara Mall, Ground Floor, Near MG Road Metro Station, Gurgaon, Haryana-122001", "lat": 28.4727, "lng": 77.0600},
  {"centre_name": "Bhim Nagar", "address": "Shop No. 327/8, New Railway Road, Gali No. 24, Opp. Bagga Traders, Bhim Nagar, Gurugram, Haryana-122006", "lat": 28.4395, "lng": 77.0266},
  {"centre_name": "Sector 16", "address": "Booth No. 110, Main Market, Sector 16, Near ICICI Bank, Faridabad, Haryana-121007", "lat": 28.4120, "lng": 77.3152},
  {"centre_name": "Mughal Canal Market", "address": "SCO 401, Ground Floor, Mughal Canal Road, Main Market, Karnal, Haryana-132001", "lat": 29.6857, "lng": 76.9905},
  {"centre_name": "Ambala City", "address": "422, Manali House, Near Petrol Pump, Ambala City, Haryana-134003", "lat": 30.3782, "lng": 76.7682},
  {"centre_name": "Sector 20C", "address": "SCO-75, 1st Floor, Sector-20C, Near Gurudwara Chowk, Chandigarh-160020", "lat": 30.7333, "lng": 76.7794},
  {"centre_name": "Hoshiarpur", "address": "SCO-40, 1st Floor, City Centre, Near Bus Stand, Hoshiarpur, Punjab-146001", "lat": 31.5143, "lng": 75.9115},
  {"centre_name": "Jalandhar", "address": "192, Basement, Gujral Nagar, Near Sandhu Orthodontics Clinic, Opposite Amarjeet Scanning & Diagnostic Centre, Jalandhar, Punjab-144001", "lat": 31.3260, "lng": 75.5762},
  {"centre_name": "Ludhiana", "address": "518 R Model Town, Above Axis Bank, Near Lallyarpur Sweets Road, Ludhiana, Punjab-141002", "lat": 30.9010, "lng": 75.8573},
  {"centre_name": "Amritsar", "address": "Pillar No. 18-B, Near Yes Bank, Batala Road, Opposite Saroj Dhaba, Amritsar, Punjab-143001", "lat": 31.6340, "lng": 74.8723},
  {"centre_name": "Bathinda", "address": "Shop No. 5, Shri Guru Nanakdev Ji Complex, 100 Feet Road, Near Ghore Wala Chowk, Street No. 6/4 B Corner, Bathinda, Punjab-151001", "lat": 30.2110, "lng": 74.9455},
  {"centre_name": "Agra", "address": "23/453, Shop No. 2, 1st Floor, Opp. Sanjay Talkies, Upon Pinch Of Spices, Wazirpura Road, Agra, U.P.-282003", "lat": 27.1767, "lng": 78.0081},
  {"centre_name": "Prayagraj", "address": "36C/4A, Ghaush Nagar Road, 12 Market, Near Chaursiya Chauraha, Opposite Shuhag Palace, Prayagraj-211016", "lat": 25.4358, "lng": 81.8463},
  {"centre_name": "Gomti Nagar", "address": "Sahara Plaza, Gate No. 3, Shop No. D-218, Patrakarpuram Chauraha, Gomti Nagar, Lucknow, UP-226010", "lat": 26.8654, "lng": 80.9900},
  {"centre_name": "Kanpur", "address": "House No. 3, New Shivli Road, Chungi Tiraha, Panki Road, Kalyanpur, Kanpur, UP-208017", "lat": 26.4499, "lng": 80.3319},
  {"centre_name": "Moradabad", "address": "Cross Road Mall, Shop No. 4, 1st Floor, Opp. Temptation Bakery, Civil Lines, Avas Vikas Pili Kothi, Moradabad-244001", "lat": 28.8386, "lng": 78.7733},
  {"centre_name": "Dehradun", "address": "51/38, Ballupur Road, Near Synergy Hospital, Dehradun, UTTARAKHAND-248001", "lat": 30.3165, "lng": 78.0322},
  {"centre_name": "Jaipur", "address": "104, 1st Floor, The Mile Stone, Gandhinagar, Mode Tonk Road, Jaipur, Rajasthan-302015", "lat": 26.9124, "lng": 75.7873},
  {"centre_name": "Vadodara", "address": "Shop No. 12, Tulsidham Apartment, Tulsidham Char Rasta Chowk, Manjalpur, Vadodara, Gujarat-390011", "lat": 22.3072, "lng": 73.1812},
  {"centre_name": "Gandhinagar", "address": "Shop No. 102, 1st Floor, Shree Ugati Corporate Park, Opp. HDFC Bank, Near Maruti Nexa Kudasan, Gandhinagar, Gujarat-382421", "lat": 23.2156, "lng": 72.6369},
  {"centre_name": "Surat", "address": "Shop No. U20, Krishna Complex, Gujarat Gas Circle, Near Raymond Showroom, Adajan, Surat, Gujarat-395009", "lat": 21.1702, "lng": 72.8311},
  {"centre_name": "Chandkheda", "address": "Shop No. FF-12, Aaron Elegance, Opp. Radhe Bungalows-1, Behind GTU College, Near IndusInd Bank, New CG Road, Chandkheda, Ahmedabad, Gujarat-382424", "lat": 23.1021, "lng": 72.5834},
  {"centre_name": "Anand", "address": "F-6, First Floor, Triveni Arcade, Anand Vidya Nagar, Anand, Gujarat-388120", "lat": 22.5645, "lng": 72.9289},
  {"centre_name": "Gandhinagar (Jammu)", "address": "355-A Gandhi Nagar, Near Pahalwans, Gol Market, Gandhinagar, Jammu-180004", "lat": 32.7266, "lng": 74.8570},
  {"centre_name": "Kalighat", "address": "138, Shyama Prasad Mukherjee Road, Rash-Bihari More, Kalighat, Kolkata-700026, West Bengal. Landmark: Kalighat Metro Station Gate No. 1", "lat": 22.5279, "lng": 88.3430},
  {"centre_name": "Ultadanga", "address": "P-191, Ultadanga Main, CIT Scheme VII M, Ultadanga, Kolkata, West Bengal-700067. Near Bidhan Nagar Railway Station, Bank of Baroda ATM Building, Ground Floor", "lat": 22.5726, "lng": 88.3991},
  {"centre_name": "Howrah", "address": "Siemens Best Sound Centre, 55, Bijoy Kumar Mukherjee Road, P.S. Golabari, Howrah, West Bengal-711106", "lat": 22.5958, "lng": 88.2636},
  {"centre_name": "Nerul", "address": "Shop No. 15, Krishna Kamal CHS, Plot No. 111/E, Opp. ICICI Bank, Sector 21, Nerul East, Navi Mumbai-400706", "lat": 19.0330, "lng": 73.0297},
  {"centre_name": "Kandivali", "address": "Shop No. 11, Burahni Heritage, M.G. Road, Kandivali West, Mumbai, Maharashtra-400067", "lat": 19.2048, "lng": 72.8476},
  {"centre_name": "Andheri", "address": "D10/E6, Minoo Minar CHS, Veera Desai Road, Next to Courtyard Restaurant, Andheri West, Mumbai, Maharashtra-400053", "lat": 19.1136, "lng": 72.8697},
  {"centre_name": "Trivandrum", "address": "Shop No. 66, City Plaza First Floor, Opp. Metro Scans, Medical College Ulloor Road, Trivandrum, Kerala-695011", "lat": 8.5241, "lng": 76.9366},
  {"centre_name": "Jayanagar", "address": "House No. 93, 7th Main Road, 30th Cross, Jayanagar 4th Block, Opposite Maiyas Restaurant, Bengaluru-560011", "lat": 12.9311, "lng": 77.5833},
  {"centre_name": "Sahakara Nagar", "address": "2382, Block-E, Sahakara Nagar, Bengaluru-560092", "lat": 13.0629, "lng": 77.5895}
]
